City_ID,City,Country,Lat,Lng,Max Temp,Humidity,Cloudiness,Wind Speed,Current Description
0,Guerrero Negro,MX,27.9769,-114.0611,85.46,42,81,10.78,broken clouds
1,Chatra,IN,24.2167,84.8667,73.38,91,93,3.51,overcast clouds
2,Wanlaweyn,SO,2.6185,44.8938,76.75,80,24,11.43,few clouds
3,Mehamn,NO,71.0357,27.8492,53.51,72,100,32.17,overcast clouds
4,Khatanga,RU,71.9667,102.5,19.26,93,99,12.68,overcast clouds
5,Mar Del Plata,AR,-38.0023,-57.5575,51.01,58,0,13.0,clear sky
6,Hermanus,ZA,-34.4187,19.2345,52.9,71,60,9.71,light rain
7,Victoria,HK,22.2855,114.1577,84.33,81,88,1.99,overcast clouds
8,Mataura,NZ,-46.1927,168.8643,48.47,83,100,8.55,light rain
9,Pleshanovo,RU,52.8333,53.4833,46.29,73,100,7.58,overcast clouds
10,Cabo San Lucas,MX,22.8909,-109.9124,88.18,65,20,10.36,few clouds
11,Hithadhoo,MV,-0.6,73.0833,82.96,77,77,19.06,broken clouds
12,Kaeo,NZ,-35.1,173.7833,63.32,97,100,8.21,overcast clouds
13,Shahrud,IR,36.4182,54.9763,57.47,62,0,2.08,clear sky
14,Sorland,NO,67.667,12.6934,51.82,84,100,23.22,light rain
15,Road Town,VG,18.4167,-64.6167,84.29,74,40,9.22,scattered clouds
16,Ushuaia,AR,-54.8,-68.3,38.86,75,75,27.63,light intensity drizzle
17,Pierre,US,44.3683,-100.351,83.28,33,1,1.99,clear sky
18,Nikolskoye,RU,59.7035,30.7861,45.88,91,0,6.96,clear sky
19,Inongo,CD,-1.95,18.2667,70.11,98,89,3.27,moderate rain
20,Punta Arenas,CL,-53.15,-70.9167,42.91,65,0,27.63,clear sky
21,Provideniya,RU,64.3833,-173.3,33.91,69,75,4.47,broken clouds
22,Baruun-Urt,MN,46.6806,113.2792,32.7,88,11,5.26,few clouds
23,Aktau,KZ,43.65,51.2,54.18,33,100,21.0,overcast clouds
24,Cherskiy,RU,68.75,161.3,17.76,97,94,2.75,overcast clouds
25,Emerald,AU,-23.5333,148.1667,77.34,60,0,12.39,clear sky
26,Castro,BR,-24.7911,-50.0119,62.67,99,100,3.24,moderate rain
27,Lebu,CL,-37.6167,-73.65,50.59,74,0,20.89,clear sky
28,Price,US,39.5994,-110.8107,76.71,21,1,6.91,clear sky
29,Thompson,CA,55.7435,-97.8558,62.76,51,75,5.75,smoke
30,Port Alfred,ZA,-33.5906,26.891,55.13,77,29,7.52,light rain
31,Hobart,AU,-42.8794,147.3294,56.05,95,75,1.01,broken clouds
32,Cape Town,ZA,-33.9258,18.4232,56.08,60,20,12.66,few clouds
33,Port Blair,IN,11.6667,92.75,80.11,82,24,7.07,few clouds
34,Atuona,PF,-9.8,-139.0333,77.81,75,14,17.49,few clouds
35,Majene,ID,-3.5403,118.9707,76.68,87,100,4.05,overcast clouds
36,Bonavista,CA,48.6499,-53.1147,55.11,88,92,11.61,overcast clouds
37,Dikson,RU,73.5069,80.5464,34.86,98,100,23.98,light rain
38,Chicama,PE,-7.8447,-79.1469,61.34,68,45,9.46,scattered clouds
39,Salalah,OM,17.0151,54.0924,80.69,89,75,8.05,broken clouds
40,Pevek,RU,69.7008,170.3133,24.42,91,100,5.03,overcast clouds
41,Kodiak,US,57.79,-152.4072,45.91,46,1,13.8,clear sky
42,Iranshahr,IR,27.2025,60.6848,82.26,35,97,2.73,overcast clouds
43,Hasaki,JP,35.7333,140.8333,68.4,80,0,10.02,clear sky
44,Moroto,UG,2.5345,34.6666,72.1,64,59,2.44,light rain
45,Aschersleben,DE,51.75,11.4667,65.95,64,100,14.43,overcast clouds
46,Rikitea,PF,-23.1203,-134.9692,73.69,63,79,15.79,broken clouds
47,Puerto Ayora,EC,-0.7393,-90.3518,75.16,79,31,11.48,scattered clouds
48,Margate,GB,51.3813,1.3862,55.11,85,0,1.01,clear sky
49,Taldan,RU,53.6667,124.8,26.51,80,5,4.03,clear sky
50,Jamestown,US,42.097,-79.2353,68.02,97,90,4.0,mist
51,Gat,IL,31.61,34.7642,74.08,68,38,6.2,scattered clouds
52,Barrow,US,71.2906,-156.7887,30.22,74,90,13.8,overcast clouds
53,Bredasdorp,ZA,-34.5322,20.0403,45.28,75,61,2.15,broken clouds
54,Tiksi,RU,71.6872,128.8694,24.3,88,98,14.43,overcast clouds
55,Inirida,CO,3.8653,-67.9239,81.7,80,98,1.19,overcast clouds
56,Kang,BW,-23.6752,22.7876,55.0,21,0,8.01,clear sky
57,Nanortalik,GL,60.1432,-45.2371,38.73,82,0,5.28,clear sky
58,Srednekolymsk,RU,67.45,153.6833,23.43,90,98,4.07,overcast clouds
59,Bethel,US,41.3712,-73.414,71.96,81,90,0.0,overcast clouds
60,Albany,US,42.6001,-73.9662,63.68,93,100,2.08,overcast clouds
61,Guaruja,BR,-23.9931,-46.2564,73.47,26,100,1.99,overcast clouds
62,Sitka,US,57.0531,-135.33,46.29,66,75,5.75,light rain
63,Qaanaaq,GL,77.484,-69.3632,29.25,96,100,7.0,overcast clouds
64,San Carlos De Bariloche,AR,-41.1456,-71.3082,47.95,43,40,21.85,scattered clouds
65,Eagle Pass,US,28.7091,-100.4995,90.91,51,100,1.99,overcast clouds
66,Masuguru,TZ,-11.3667,38.4167,73.6,61,48,7.0,scattered clouds
67,Bluff,NZ,-46.6,168.3333,48.79,81,100,24.25,overcast clouds
68,Berlevag,NO,70.8578,29.0864,53.55,58,0,44.87,clear sky
69,Cohoes,US,42.7742,-73.7001,64.6,87,90,4.61,light rain
70,Castellarano,IT,44.5131,10.7329,68.22,81,73,1.99,broken clouds
71,Saldanha,ZA,-33.0117,17.9442,55.54,74,0,24.63,clear sky
72,Luderitz,NA,-26.6481,15.1594,57.56,57,89,21.27,overcast clouds
73,Busselton,AU,-33.65,115.3333,54.1,67,97,6.87,overcast clouds
74,Pisco,PE,-13.7,-76.2167,64.45,72,0,18.41,clear sky
75,Faanui,PF,-16.4833,-151.75,78.78,72,34,9.66,scattered clouds
76,Avera,US,33.194,-82.5271,82.71,52,95,1.83,overcast clouds
77,Buala,SB,-8.145,159.5921,82.62,77,52,3.22,light rain
78,Borisovka,RU,50.6236,35.9903,42.94,76,3,6.93,clear sky
79,Vaini,TO,-21.2,-175.2,77.16,88,90,9.22,overcast clouds
80,Seymchan,RU,62.8833,152.4333,28.51,69,100,14.81,overcast clouds
81,Goderich,CA,43.7501,-81.7165,71.2,94,98,3.44,overcast clouds
82,Richards Bay,ZA,-28.783,32.0377,58.21,84,100,5.23,light rain
83,Garowe,SO,8.4054,48.4845,75.65,75,84,16.28,broken clouds
84,Tura,IN,25.5198,90.2201,70.75,98,80,3.98,light rain
85,Bilibino,RU,68.0546,166.4372,16.97,95,91,2.66,overcast clouds
86,Trapani,IT,37.8333,12.6667,72.34,88,0,11.5,clear sky
87,Half Moon Bay,US,37.4636,-122.4286,97.25,26,1,9.22,clear sky
88,Cayenne,GF,4.9333,-52.3333,84.24,75,0,5.01,clear sky
89,Hanmer Springs,NZ,-42.5167,172.8167,45.59,99,100,2.3,light rain
90,Vilhena,BR,-12.7406,-60.1458,80.82,57,20,10.36,few clouds
91,Shingu,JP,33.7333,135.9833,73.96,84,64,4.27,broken clouds
92,Kruisfontein,ZA,-34.0033,24.7314,50.88,79,34,5.88,scattered clouds
93,Zhigansk,RU,66.7697,123.3711,25.41,86,98,6.17,overcast clouds
94,Hammerfest,NO,70.6634,23.6821,52.25,66,75,20.71,light rain
95,West Wendover,US,40.7391,-114.0733,72.61,16,1,5.75,clear sky
96,Saint-Philippe,RE,-21.3585,55.7679,72.99,84,48,14.12,light rain
97,Lompoc,US,34.6391,-120.4579,94.01,39,39,4.0,scattered clouds
98,Kapaa,US,22.0752,-159.319,80.58,76,90,5.01,light rain
99,Jiwani,PK,25.05,61.7417,81.45,83,69,5.39,broken clouds
100,Upernavik,GL,72.7868,-56.1549,30.56,88,99,4.68,overcast clouds
101,Tasiilaq,GL,65.6145,-37.6368,35.76,54,0,5.7,clear sky
102,Irbeyskoye,RU,55.6428,95.4522,30.07,77,83,3.31,broken clouds
103,Longyearbyen,SJ,78.2186,15.6401,37.24,93,75,4.61,broken clouds
104,Muscat,OM,23.6139,58.5922,78.82,73,100,7.65,overcast clouds
105,Port Elizabeth,ZA,-33.918,25.5701,53.1,76,4,6.58,clear sky
106,Rio Grande,BR,-32.035,-52.0986,60.91,75,100,16.89,overcast clouds
107,Puerto De La Cruz,ES,28.414,-16.5487,73.47,84,4,1.99,clear sky
108,Xingcheng,CN,40.6167,120.7167,57.38,60,100,20.71,overcast clouds
109,San Ramon,US,37.7799,-121.978,95.76,22,1,1.99,clear sky
110,Safaga,EG,26.7292,33.9365,78.75,52,0,13.78,clear sky
111,Chuy,UY,-33.6971,-53.4616,52.88,66,81,11.45,broken clouds
112,Namibe,AO,-15.1961,12.1522,60.93,87,41,6.29,scattered clouds
113,Oyama,JP,36.3,139.8,72.59,75,47,2.46,scattered clouds
114,Portland,US,45.5234,-122.6762,73.71,65,20,1.01,few clouds
115,Itupiranga,BR,-5.1347,-49.3267,86.32,74,92,1.14,overcast clouds
116,Ribeira Grande,PT,38.5167,-28.7,71.83,89,24,6.46,few clouds
117,Sovetskaya Gavan,RU,48.9723,140.2878,43.79,85,84,9.01,broken clouds
118,Lasa,IT,46.6166,10.7002,58.08,97,96,5.53,overcast clouds
119,Dauphin,CA,51.1494,-100.0502,73.54,25,1,9.22,clear sky
120,Rurrenabaque,BO,-14.4413,-67.5278,95.38,35,82,6.08,broken clouds
121,Butaritari,KI,3.0707,172.7902,82.42,68,89,18.77,overcast clouds
122,Aksha,RU,50.2814,113.2867,33.04,85,90,4.27,overcast clouds
123,Hilo,US,19.7297,-155.09,82.13,73,90,6.91,overcast clouds
124,Airai,TL,-8.9266,125.4092,61.43,57,11,1.3,few clouds
125,Ossora,RU,59.2353,163.0719,40.28,96,100,36.46,moderate rain
126,Talnakh,RU,69.4865,88.3972,17.33,97,97,0.58,overcast clouds
127,Miri,MY,4.4148,114.0089,73.54,100,40,3.44,scattered clouds
128,East London,ZA,-33.0153,27.9116,57.22,71,44,5.23,light rain
129,Kalugumalai,IN,9.15,77.7167,79.86,80,100,5.44,overcast clouds
130,Laguna,US,38.421,-121.4238,93.42,21,1,1.01,clear sky
131,Saint-Francois,FR,46.4154,3.9054,53.67,100,90,5.75,overcast clouds
132,Souillac,MU,-20.5167,57.5167,72.36,83,40,11.5,scattered clouds
133,Severo-Yeniseyskiy,RU,60.3725,93.0408,30.31,98,100,2.01,light snow
134,Severo-Kurilsk,RU,50.6789,156.125,47.73,77,78,32.19,broken clouds
135,Paddhari,IN,22.4333,70.6,79.09,89,7,6.6,clear sky
136,Sao Gabriel Da Cachoeira,BR,-0.1303,-67.0892,89.4,62,40,3.44,scattered clouds
137,Morehead,US,37.2711,-87.1764,80.35,61,40,5.99,scattered clouds
138,Tuktoyaktuk,CA,69.4541,-133.0374,35.6,93,90,14.97,light intensity drizzle
139,Arraial Do Cabo,BR,-22.9661,-42.0278,72.7,91,52,12.53,moderate rain
140,Taguatinga,BR,-12.3857,-46.5711,91.76,26,81,3.6,broken clouds
141,Ugoofaaru,MV,5.6667,73.0,81.63,79,39,16.71,scattered clouds
142,Puerto Baquerizo Moreno,EC,-0.9,-89.6,72.59,78,75,18.41,broken clouds
143,Vaitape,PF,-16.5167,-151.75,78.78,72,34,9.64,scattered clouds
144,Bandarbeyla,SO,9.4942,50.8122,78.78,81,75,22.01,broken clouds
145,Luis Correia,BR,-2.8792,-41.6669,80.37,81,49,18.21,scattered clouds
146,Taoudenni,ML,22.6783,-3.9836,95.77,9,69,10.25,broken clouds
147,Port Moresby,PG,-9.4431,147.1797,80.02,83,40,3.44,scattered clouds
148,Hajnowka,PL,52.7433,23.5812,49.01,73,79,11.32,broken clouds
149,Georgetown,MY,5.4112,100.3354,79.9,90,20,0.0,few clouds
150,Granadilla De Abona,ES,28.1188,-16.576,66.9,75,20,14.97,few clouds
151,Koyelga,RU,54.6522,60.9049,28.81,85,75,6.35,broken clouds
152,Boden,SE,65.8252,21.6886,51.8,85,100,17.22,light rain
153,Tsabong,BW,-26.0217,22.401,54.82,23,0,9.19,clear sky
154,Buin,CL,-33.7333,-70.75,71.92,38,0,4.81,clear sky
155,Avarua,CK,-21.2078,-159.775,77.05,65,75,9.22,broken clouds
156,Vostok,RU,46.4856,135.8833,43.11,96,100,3.56,overcast clouds
157,Tazovskiy,RU,67.4667,78.7,32.79,90,100,9.6,overcast clouds
158,Mount Gambier,AU,-37.8333,140.7667,47.55,90,52,15.9,broken clouds
159,Hun,LY,29.1268,15.9477,77.25,36,4,7.25,clear sky
160,Singkang,MY,2.1006,102.7994,75.09,90,57,1.68,broken clouds
161,Raga,SS,8.4596,25.678,70.86,90,70,3.87,broken clouds
162,Fort Nelson,CA,58.8053,-122.7002,51.39,20,40,19.57,shower rain
163,Iqaluit,CA,63.7506,-68.5145,37.13,74,40,0.0,scattered clouds
164,Jishou,CN,28.3167,109.7167,71.69,80,0,0.96,clear sky
165,Coquimbo,CL,-29.9533,-71.3436,58.73,67,0,12.66,clear sky
166,Necochea,AR,-38.5473,-58.7368,49.03,70,4,9.75,clear sky
167,Mapiri,BO,-15.25,-68.1667,77.59,73,83,2.66,heavy intensity rain
168,Cabedelo,BR,-6.9811,-34.8339,77.67,79,4,10.94,clear sky
169,Varnavino,RU,57.4035,45.0916,41.04,94,98,3.96,overcast clouds
170,Sabha,LY,27.0377,14.4283,78.89,31,1,8.63,clear sky
171,Kismayo,SO,-0.3582,42.5454,77.02,83,46,14.52,scattered clouds
172,Narsaq,GL,60.9167,-46.05,43.02,65,0,4.68,clear sky
173,Koster,ZA,-25.863,26.8976,54.63,23,0,10.49,clear sky
174,Los Llanos De Aridane,ES,28.6585,-17.9182,67.75,78,0,13.8,clear sky
175,Ponta Do Sol,PT,32.6667,-17.1,75.0,77,100,5.73,overcast clouds
176,Hurfeish,IL,33.0171,35.3484,64.53,84,4,5.17,clear sky
177,Geraldton,AU,-28.7667,114.6,48.61,87,0,6.91,clear sky
178,Saint-Augustin,CA,51.226,-58.6502,42.06,92,100,7.38,overcast clouds
179,Camargo,MX,27.6667,-105.1667,72.99,46,100,7.16,overcast clouds
180,Tarut,SA,26.5733,50.0369,87.78,78,42,8.75,scattered clouds
181,New Norfolk,AU,-42.7826,147.0587,55.76,79,63,2.55,broken clouds
182,Sistranda,NO,63.7256,8.834,56.89,92,100,22.01,light rain
183,Sorong,ID,-0.8833,131.25,77.52,87,100,10.4,overcast clouds
184,Flinders,AU,-34.5833,150.8552,69.06,73,52,1.01,broken clouds
185,Dingle,PH,10.9995,122.6711,75.4,94,100,4.52,moderate rain
186,Cidreira,BR,-30.1811,-50.2056,64.06,94,100,14.61,light rain
187,Changtu,CN,42.7788,124.0955,46.76,77,100,9.98,overcast clouds
188,Imbituba,BR,-28.24,-48.6703,73.29,95,94,7.34,overcast clouds
189,Camrose,CA,53.0168,-112.8353,58.39,33,3,14.2,clear sky
190,Hutchinson,US,38.0608,-97.9298,81.19,31,1,1.01,clear sky
191,Tautira,PF,-17.7333,-149.15,84.22,75,16,9.62,few clouds
192,Saint-Pierre,RE,-21.3393,55.4781,73.08,68,90,4.61,overcast clouds
193,Alofi,NU,-19.0595,-169.9187,78.69,83,74,20.71,light rain
194,Hay River,CA,60.8156,-115.7999,49.98,32,75,13.8,broken clouds
195,Kavieng,PG,-2.5744,150.7967,82.63,71,100,5.26,overcast clouds
196,Vestmannaeyjar,IS,63.4427,-20.2734,46.63,80,78,6.91,broken clouds
197,Omsukchan,RU,62.5333,155.8,24.64,89,100,12.17,overcast clouds
198,Damghan,IR,36.1683,54.348,60.94,59,0,2.37,clear sky
199,Kahului,US,20.8947,-156.47,88.86,66,40,19.57,scattered clouds
200,Sumbe,AO,-11.2061,13.8437,72.5,81,96,4.72,overcast clouds
201,Ouadda,CF,8.0777,22.4007,67.96,96,79,3.22,light rain
202,Klaksvik,FO,62.2266,-6.589,49.12,88,100,26.96,overcast clouds
203,Plochingen,DE,48.7107,9.4195,62.55,85,0,3.44,clear sky
204,Bodden Town,KY,19.2833,-81.25,84.99,77,40,4.0,scattered clouds
205,Kamaishi,JP,39.2667,141.8833,65.82,80,1,8.43,clear sky
206,Nouakchott,MR,18.0858,-15.9785,82.33,79,2,12.91,clear sky
207,Chabahar,IR,25.2919,60.643,81.36,81,71,1.92,broken clouds
208,Ladario,BR,-19.0047,-57.6017,92.59,35,74,4.16,broken clouds
209,Flin Flon,CA,54.7682,-101.865,62.44,39,40,6.91,smoke
210,Camabatela,AO,-8.1881,15.375,64.6,85,65,4.45,broken clouds
211,Amudat,UG,1.95,34.95,71.19,74,46,3.04,light rain
212,Vermillion,US,42.7794,-96.9292,78.03,24,0,7.63,clear sky
213,Kamenka,RU,51.3223,42.7678,42.44,77,1,6.53,clear sky
214,Vila Do Maio,CV,15.1333,-23.2167,81.39,78,37,6.2,scattered clouds
215,Phonhong,LA,18.5007,102.4166,73.54,94,84,2.01,broken clouds
216,Vila Velha,BR,-20.3297,-40.2925,78.75,78,0,18.41,clear sky
217,San Vicente,AR,-26.6167,-54.1333,64.35,100,93,0.92,overcast clouds
218,College,US,64.8569,-147.8028,36.59,95,75,3.44,light snow
219,Anori,BR,-3.7728,-61.6442,83.1,69,99,1.9,light rain
220,Hofn,IS,64.2539,-15.2082,47.48,77,100,20.15,overcast clouds
221,Alice Springs,AU,-23.7,133.8833,62.15,36,0,0.0,clear sky
222,Anloga,GH,5.7947,0.8973,79.9,84,19,11.21,few clouds
223,Bud,US,39.447,-86.1758,75.29,87,100,8.46,overcast clouds
224,Hegra,NO,63.4644,11.114,64.31,63,75,9.22,moderate rain
225,Chokurdakh,RU,70.6333,147.9167,22.1,96,98,8.99,light snow
226,Bastia,FR,42.6667,9.3333,72.3,86,0,12.66,clear sky
227,Nioro,GM,13.35,-15.75,80.1,77,12,4.21,few clouds
228,Calabozo,VE,8.9242,-67.4293,82.85,66,92,4.94,overcast clouds
229,Orlik,RU,52.5178,99.825,18.77,79,100,2.64,overcast clouds
230,Saint George,US,37.1041,-113.5841,90.07,13,1,4.0,clear sky
231,Palmas,BR,-10.2128,-48.3603,85.87,58,20,5.75,few clouds
232,Haimen,CN,23.1935,116.6142,78.69,76,6,14.79,light rain
233,Auki,SB,-8.7676,160.7034,81.81,78,14,2.71,few clouds
234,Charters Towers,AU,-20.1,146.2667,77.14,63,4,11.5,clear sky
235,Chifeng,CN,42.2683,118.9636,48.49,62,100,4.92,overcast clouds
236,Jacareacanga,BR,-6.2222,-57.7528,83.71,54,100,2.37,overcast clouds
237,Bilma,NE,18.6853,12.9164,86.7,17,35,6.46,scattered clouds
238,Isangel,VU,-19.55,169.2667,79.75,77,2,4.94,clear sky
239,Mocuba,MZ,-16.8392,36.9856,80.83,50,55,7.43,broken clouds
240,Mirzapur,IN,25.15,82.5833,78.94,83,36,2.28,scattered clouds
241,Kaitangata,NZ,-46.2817,169.8464,50.94,84,100,15.01,light rain
242,Champerico,GT,14.3,-91.9167,87.04,72,24,7.36,few clouds
243,Plaisance-Du-Touch,FR,43.5657,1.2975,57.74,95,75,1.01,broken clouds
244,Bonfim,BR,3.0833,-59.95,82.56,69,94,8.25,overcast clouds
245,Acapulco,MX,16.8634,-99.8901,87.62,70,1,8.05,clear sky
246,Crotone,IT,39.0851,17.1178,70.02,72,73,7.05,broken clouds
247,Naze,JP,28.3667,129.4833,77.92,64,1,18.63,clear sky
248,Ca Mau,VN,9.1769,105.15,76.12,93,100,3.65,overcast clouds
249,Bambous Virieux,MU,-20.3428,57.7575,72.21,83,40,11.5,scattered clouds
250,Krasnozerskoye,RU,53.9828,79.2374,34.07,80,100,7.36,overcast clouds
251,Marsh Harbour,BS,26.5412,-77.0636,80.28,67,1,8.9,clear sky
252,Paciran,ID,-6.8767,112.3761,77.97,76,100,9.53,overcast clouds
253,Sept-Iles,CA,50.2001,-66.3821,49.05,72,75,1.99,broken clouds
254,Saskylakh,RU,71.9167,114.0833,17.04,92,99,11.77,overcast clouds
255,Ginda,IN,30.6945,78.4932,59.5,91,0,4.23,clear sky
256,Ayr,GB,55.4627,-4.6339,52.11,89,39,15.48,scattered clouds
257,The Pas,CA,53.8251,-101.2541,64.42,36,90,11.5,haze
258,Ahuimanu,US,21.4447,-157.8378,87.51,63,40,10.36,scattered clouds
259,Gravelbourg,CA,49.8834,-106.5512,79.07,15,6,14.54,clear sky
260,Ochakiv,UA,46.6128,31.5498,55.54,48,99,11.77,overcast clouds
261,Padang,ID,-0.9492,100.3543,73.45,87,94,2.86,overcast clouds
262,Altay,CN,47.8667,88.1167,31.95,40,86,5.53,overcast clouds
263,Kendari,ID,-3.945,122.4989,73.71,94,99,3.27,overcast clouds
264,Lata,PT,40.1629,-8.3327,56.8,84,52,0.87,broken clouds
265,Beringovskiy,RU,63.05,179.3167,38.89,99,100,6.89,light rain
266,Pahrump,US,36.2083,-115.9839,91.51,13,6,3.0,clear sky
267,Carnarvon,AU,-24.8667,113.6333,59.07,82,0,10.36,clear sky
268,Codrington,AU,-38.2667,141.9667,50.45,84,58,19.55,broken clouds
269,Inhambane,MZ,-23.865,35.3833,72.03,92,100,7.67,overcast clouds
270,Ambagarh Chauki,IN,20.7833,80.7167,74.05,92,94,4.12,overcast clouds
271,Sakaiminato,JP,35.55,133.2333,67.98,73,20,9.22,few clouds
272,Dryden,CA,49.7833,-92.7503,62.89,63,1,5.75,clear sky
273,Sedalia,US,38.7045,-93.2283,75.63,62,1,9.22,clear sky
274,Gizo,SB,-8.103,156.8419,83.25,75,12,5.57,few clouds
275,Omboue,GA,-1.5746,9.2618,76.55,84,100,7.27,overcast clouds
276,Katsuura,JP,35.1333,140.3,73.11,77,4,8.61,clear sky
277,Kalmar,SE,56.6616,16.3616,58.93,87,100,12.66,overcast clouds
278,Krivosheino,RU,57.3431,83.9261,33.73,98,100,6.24,overcast clouds
279,Talcahuano,CL,-36.7167,-73.1167,56.88,67,0,20.71,clear sky
280,Inta,RU,66.0317,60.1659,30.65,89,90,8.32,overcast clouds
281,Maceio,BR,-9.6658,-35.7353,76.44,94,0,5.75,clear sky
282,Muroto,JP,33.2833,134.15,66.24,74,3,5.91,clear sky
283,Sawakin,SD,19.1059,37.3321,84.15,62,96,9.15,overcast clouds
284,Christchurch,NZ,-43.5333,172.6333,53.91,89,90,5.01,moderate rain
285,Banda Aceh,ID,5.5577,95.3222,78.4,82,50,10.51,scattered clouds
286,Marsa Matruh,EG,31.3525,27.2453,73.6,49,40,5.75,scattered clouds
287,Matamoros,MX,25.5333,-103.25,78.91,53,90,9.22,overcast clouds
288,Podgorodnyaya Pokrovka,RU,51.8281,54.9874,46.53,63,100,7.38,overcast clouds
289,Santa Maria,BR,-29.6842,-53.8069,64.18,82,99,8.48,light rain
290,Kieta,PG,-6.2167,155.6333,83.39,69,100,1.5,overcast clouds
291,Jurado,CO,7.1053,-77.7641,81.59,78,37,5.75,scattered clouds
292,Diego De Almagro,CL,-26.3667,-70.05,69.42,17,1,8.75,clear sky
293,Along,IN,28.1667,94.7667,70.79,99,100,1.19,overcast clouds
294,Samarai,PG,-10.6167,150.6667,80.91,80,64,5.95,broken clouds
295,Coihaique,CL,-45.5752,-72.0662,46.35,66,75,5.75,broken clouds
296,Kununurra,AU,-15.7667,128.7333,75.18,88,60,0.0,broken clouds
297,Husavik,IS,66.0449,-17.3389,42.71,98,100,21.79,overcast clouds
298,Pangnirtung,CA,66.1451,-65.7125,37.29,72,85,1.81,overcast clouds
299,Yellowknife,CA,62.456,-114.3525,52.41,51,40,10.36,scattered clouds
300,Dakoro,NE,14.5106,6.765,90.16,18,0,5.79,clear sky
301,Sillod,IN,20.3,75.65,75.11,85,99,3.0,overcast clouds
302,Yumen,CN,40.2833,97.2,40.42,45,90,9.55,overcast clouds
303,Buraydah,SA,26.326,43.975,79.25,13,8,7.83,clear sky
304,Fougeres,FR,48.35,-1.2,51.66,94,0,8.43,clear sky
305,Aksarka,RU,66.5606,67.7975,29.07,79,93,9.98,overcast clouds
306,Mantua,IT,45.1667,10.7833,71.28,85,65,1.99,broken clouds
307,Newberry,US,34.2746,-81.6187,81.19,66,80,3.27,broken clouds
308,Magadan,RU,59.5667,150.8,37.0,67,100,9.57,overcast clouds
309,Tolaga Bay,NZ,-38.3667,178.3,60.89,85,100,12.48,overcast clouds
310,Miandrivazo,MG,-19.5167,45.4667,77.13,70,8,4.97,clear sky
311,Plouzane,FR,48.3833,-4.6167,57.25,88,75,13.8,light rain
312,Columbus,US,39.9612,-82.9988,72.77,93,90,4.61,overcast clouds
313,Ahipara,NZ,-35.1667,173.1667,60.84,97,90,8.48,overcast clouds
314,Punta Alta,AR,-38.8759,-62.0736,55.65,47,52,6.71,broken clouds
315,Baft,IR,29.234,56.6057,60.82,28,68,5.01,broken clouds
316,Xichang,CN,27.8964,102.2634,61.86,93,12,1.43,few clouds
317,Ostrovnoy,RU,68.0531,39.5131,44.29,85,18,21.61,few clouds
318,Fairbanks,US,64.8378,-147.7164,36.61,95,90,8.05,light snow
319,Marmarion,GR,38.0484,24.3204,66.74,62,34,18.45,scattered clouds
320,Leningradskiy,RU,69.3833,178.4167,19.29,83,66,4.0,broken clouds
321,Quelimane,MZ,-17.8786,36.8883,77.2,79,10,8.59,clear sky
322,Sao Filipe,CV,14.8961,-24.4956,80.71,77,80,4.9,broken clouds
323,Bathsheba,BB,13.2167,-59.5167,84.81,70,20,19.57,few clouds
324,Evensk,RU,61.95,159.2333,40.8,60,100,21.03,overcast clouds
325,Makakilo City,US,21.3469,-158.0858,86.32,61,90,5.75,overcast clouds
326,Port-Cartier,CA,50.0334,-66.8654,48.74,75,99,0.65,overcast clouds
327,Elat,IL,29.5581,34.9482,76.84,50,0,16.11,clear sky
328,Tual,ID,-5.6667,132.75,80.64,67,96,8.41,overcast clouds
329,Grahamstown,ZA,-33.3042,26.5328,49.6,72,64,1.43,broken clouds
330,Luangwa,ZM,-15.6167,30.4167,85.17,36,76,2.19,broken clouds
331,Vanimo,PG,-2.6741,141.3028,79.48,79,81,2.86,broken clouds
332,Alyangula,AU,-13.8483,136.4192,81.48,75,46,10.31,scattered clouds
333,Bozova,TR,37.3625,38.5267,65.32,37,0,8.77,clear sky
334,San Patricio,US,28.017,-97.5169,90.01,56,89,4.23,overcast clouds
335,Deputatskiy,RU,69.3,139.9,13.64,93,93,6.06,overcast clouds
336,Monki,PL,53.405,22.7979,47.68,66,78,12.21,broken clouds
337,Apatin,RS,45.6711,18.9847,60.28,44,26,7.94,scattered clouds
338,Ocos,GT,14.5094,-92.1933,89.78,70,39,6.55,scattered clouds
339,Iquitos,PE,-3.7481,-73.2472,82.44,78,75,8.05,broken clouds
340,Harper,LR,4.375,-7.7169,78.19,88,91,6.06,overcast clouds
341,Maputo,MZ,-25.9653,32.5892,62.22,82,100,8.01,overcast clouds
342,Sibenik,HR,43.7272,15.9058,66.38,74,0,1.01,clear sky
343,Ilulissat,GL,69.2167,-51.1,28.42,64,99,1.14,overcast clouds
344,Covington,US,39.0837,-84.5086,72.7,90,20,11.5,few clouds
345,Multan,PK,30.1956,71.4753,84.09,79,4,6.91,smoke
346,Baykit,RU,61.67,96.37,34.16,94,98,1.21,overcast clouds
347,Sisimiut,GL,66.9395,-53.6735,34.52,73,22,6.31,few clouds
348,Tortoli,IT,39.9256,9.6572,75.97,88,20,24.16,few clouds
349,Coruripe,BR,-10.1256,-36.1756,76.17,85,9,12.12,clear sky
350,Trat,TH,12.5,102.5,80.98,94,65,1.68,broken clouds
351,Mareeba,AU,-17.0,145.4333,84.33,73,11,2.06,few clouds
352,The Valley,AI,18.217,-63.0578,84.34,70,20,16.11,few clouds
353,Marica,BR,-22.9194,-42.8186,75.36,97,74,6.4,moderate rain
354,Robertsport,LR,6.7533,-11.3686,79.68,86,56,7.52,broken clouds
355,Panji,ID,-7.7253,114.0995,75.47,77,75,6.71,broken clouds
356,Eureka,US,40.8021,-124.1637,71.2,72,19,5.99,few clouds
357,Chinsali,ZM,-10.5414,32.0816,71.42,52,78,3.22,broken clouds
358,Solnechnyy,RU,50.7214,136.6319,36.3,63,2,4.14,clear sky
359,Chestermere,CA,51.0334,-113.8187,71.85,18,20,23.02,few clouds
360,Prince Rupert,CA,54.3161,-130.3201,49.69,74,90,9.22,light rain
361,Niagara Falls,CA,43.1001,-79.0663,69.1,93,90,4.61,mist
362,Russell,US,32.3502,-85.1999,80.2,73,75,3.44,broken clouds
363,Port Macquarie,AU,-31.4333,152.9167,66.88,49,82,7.31,broken clouds
364,Vao,NC,-22.6667,167.4833,72.36,89,3,4.25,clear sky
365,Bengkulu,ID,-3.8004,102.2655,74.28,91,97,3.47,overcast clouds
366,Veracruz,MX,19.3333,-96.6667,78.87,80,80,2.57,broken clouds
367,Sangar,RU,63.9242,127.4739,27.64,82,50,6.26,scattered clouds
368,Luyang,CN,27.6239,110.0989,71.87,75,0,2.64,clear sky
369,Karratha,AU,-20.7377,116.8463,68.41,63,0,4.52,clear sky
370,Goundam,ML,16.4145,-3.6708,95.65,17,99,7.45,overcast clouds
371,Abu Samrah,SY,35.3029,37.1841,67.1,77,0,12.82,clear sky
372,Ambilobe,MG,-13.2,49.05,67.91,83,9,3.47,clear sky
373,Sadove,UA,46.2487,30.1795,55.36,63,96,7.29,overcast clouds
374,Mount Isa,AU,-20.7333,139.5,76.77,22,25,13.8,scattered clouds
375,Suluq,LY,31.6682,20.2521,71.51,54,0,7.67,clear sky
376,Lavrentiya,RU,65.5833,-171.0,27.32,67,14,1.63,few clouds
377,Thunder Bay,CA,48.4001,-89.3168,61.29,86,90,0.0,overcast clouds
378,Viedma,AR,-40.8135,-62.9967,54.07,33,2,5.99,clear sky
379,Vardo,NO,70.3705,31.1107,48.4,78,98,27.76,overcast clouds
380,Pozzallo,IT,36.7305,14.8499,65.05,72,0,4.38,clear sky
381,Erenhot,CN,43.6475,111.9767,43.99,43,74,4.21,broken clouds
382,Manokwari,ID,-0.8667,134.0833,80.67,75,100,6.44,overcast clouds
383,Yulara,AU,-25.2406,130.9889,58.84,33,0,4.61,clear sky
384,Kirovskiy,RU,45.0917,133.5136,48.7,94,96,4.63,moderate rain
385,Mahebourg,MU,-20.4081,57.7,72.25,83,40,11.5,scattered clouds
386,Aklavik,CA,68.2191,-135.0107,34.63,96,100,16.67,overcast clouds
387,Kharp,RU,66.8014,65.8081,29.82,80,100,6.15,overcast clouds
388,Ayagoz,KZ,47.9714,80.4392,39.13,59,100,5.28,overcast clouds
389,Krasnoselkup,RU,65.7,82.4667,20.52,88,38,9.46,scattered clouds
390,Ancud,CL,-41.8697,-73.8203,49.53,75,82,8.41,broken clouds
391,Gritsovskiy,RU,54.1376,38.1604,40.78,79,100,5.53,light rain
392,Nome,US,64.5011,-165.4064,37.17,56,20,5.75,few clouds
393,Kailua,US,21.4022,-157.7394,87.78,65,40,10.36,scattered clouds
394,Lulea,SE,65.5842,22.1547,51.87,82,20,21.85,light rain
395,Vila Franca Do Campo,PT,37.7167,-25.4333,73.2,87,96,4.7,overcast clouds
396,Waipawa,NZ,-41.4122,175.5153,55.02,93,100,4.74,overcast clouds
397,Hamilton,US,39.1834,-84.5333,72.61,86,20,1.01,few clouds
398,Henties Bay,NA,-22.116,14.2845,53.38,91,0,1.68,clear sky
399,Muisne,EC,0.6,-80.0333,80.71,80,78,9.73,broken clouds
400,Sinnamary,GF,5.3833,-52.95,80.15,81,30,11.54,scattered clouds
401,Alcaniz,ES,41.05,-0.1333,58.42,63,100,19.33,overcast clouds
402,Vestmanna,FO,62.1564,-7.1664,47.32,100,75,29.93,broken clouds
403,Wamba,NG,8.9333,8.6,73.49,92,10,1.52,light rain
404,Kloulklubed,PW,7.0419,134.2556,81.1,70,74,8.23,broken clouds
405,Santa Lucia,ES,27.9117,-15.5407,65.52,73,20,25.32,few clouds
406,Te Anau,NZ,-45.4167,167.7167,46.76,97,100,2.04,overcast clouds
407,Mugango,TZ,-1.6833,33.7,71.53,73,99,3.06,overcast clouds
408,Saint-Medard-En-Jalles,FR,44.8969,-0.7214,52.02,94,0,2.3,clear sky
409,Mopti,ML,14.6667,-4.0,92.89,25,90,5.21,overcast clouds
410,Port Lincoln,AU,-34.7333,135.8667,53.87,63,43,28.27,scattered clouds
411,Paamiut,GL,61.994,-49.6678,38.71,76,3,6.24,clear sky
412,Canmore,CA,51.0834,-115.3521,68.25,25,0,9.22,clear sky
413,Sabang,ID,5.8933,95.3214,81.61,76,41,15.12,scattered clouds
414,Gigmoto,PH,13.7796,124.39,81.05,87,100,15.86,light rain
415,Razdolnoye,RU,43.55,131.9167,55.81,96,100,3.96,overcast clouds
416,Shaoguan,CN,24.8,113.5833,74.66,88,0,1.23,clear sky
417,Staryy Nadym,RU,65.6118,72.6842,32.23,83,100,5.66,overcast clouds
418,Poyarkovo,RU,49.6,128.6833,32.29,85,7,5.64,clear sky
419,Arica,CL,-18.475,-70.3042,61.03,72,90,10.36,overcast clouds
420,Whitianga,NZ,-36.8333,175.7,62.02,99,100,10.11,light rain
421,Chumphon,TH,10.3333,98.8333,70.88,96,91,2.37,overcast clouds
422,Porto Novo,BJ,6.4965,2.6036,78.12,88,48,4.79,light rain
423,Rio Gallegos,AR,-51.6226,-69.2181,50.05,32,40,39.12,scattered clouds
424,Shetpe,KZ,44.1667,52.1167,53.47,26,95,14.61,overcast clouds
425,Corowa,AU,-36.0333,146.3833,56.32,91,83,9.33,broken clouds
426,Panama City,PA,8.9936,-79.5197,85.17,71,40,9.22,scattered clouds
427,Daru,PG,-9.0763,143.2092,80.51,79,31,3.85,scattered clouds
428,Raudeberg,NO,61.9875,5.1352,58.78,70,68,10.0,moderate rain
429,Preveza,GR,38.95,20.75,57.11,82,100,0.0,overcast clouds
430,Ojinaga,MX,29.5667,-104.4167,87.57,37,1,10.36,clear sky
431,Green River,US,41.5286,-109.4662,73.18,23,0,3.0,clear sky
432,Muzhi,RU,65.3667,64.6667,29.14,77,40,6.71,scattered clouds
433,Springfield,US,37.2153,-93.2982,74.16,72,1,4.0,clear sky
434,Beckley,US,37.7782,-81.1882,66.7,98,90,8.05,overcast clouds
435,Camden,US,39.7835,-74.9663,80.64,73,85,3.13,overcast clouds
436,Asau,RO,46.4333,26.4,46.76,80,20,2.68,few clouds
437,Aksu,CN,41.1231,80.2644,50.11,66,100,0.98,light rain
438,Ashqelon,IL,31.6693,34.5715,75.09,63,79,7.36,broken clouds
439,Marzuq,YE,14.4,46.4667,76.44,58,95,8.93,overcast clouds
440,Koroni,GR,36.8,21.95,68.07,62,100,4.83,overcast clouds
441,Torbay,CA,47.6666,-52.7314,54.75,92,90,6.91,overcast clouds
442,Petrolina,BR,-9.3986,-40.5008,84.25,32,0,5.75,clear sky
443,Tamworth,GB,52.634,-1.6959,52.63,87,2,5.99,clear sky
444,Saint-Joseph,RE,-21.3667,55.6167,71.98,81,22,10.31,light rain
445,Birjand,IR,32.8663,59.2211,52.27,35,0,6.91,clear sky
446,Inyonga,TZ,-6.7167,32.0667,76.1,47,100,6.35,overcast clouds
447,Lorengau,PG,-2.0226,147.2712,82.18,75,93,5.26,overcast clouds
448,Malie,WS,-13.8004,-171.8469,85.91,66,9,20.67,light rain
449,Komsomolskiy,UZ,40.4272,71.7189,56.12,54,97,2.3,overcast clouds
450,Agadez,NE,19.75,10.25,80.56,19,0,3.91,clear sky
451,Nantucket,US,41.2835,-70.0995,67.03,90,93,9.46,overcast clouds
452,Aden,YE,12.7794,45.0367,88.0,62,67,8.25,broken clouds
453,Noumea,NC,-22.2763,166.4572,80.58,99,1,6.31,clear sky
454,Kapoeta,SS,4.7717,33.5903,76.28,72,78,4.65,broken clouds
455,Anage,BR,-14.6122,-41.1356,82.83,44,5,11.32,clear sky
456,Kurchum,KZ,48.5722,83.6542,39.42,50,86,5.59,overcast clouds
457,Brazzaville,CG,-4.2658,15.2832,79.23,69,60,2.53,broken clouds
458,Alugan,PH,12.2188,125.4808,79.74,89,100,12.88,moderate rain
459,Uglegorskiy,RU,48.2427,41.2531,41.16,52,100,9.33,overcast clouds
460,Manaus,BR,-3.1019,-60.025,84.7,70,40,5.75,scattered clouds
461,Abatskoye,RU,56.2875,70.4555,30.94,94,99,10.29,overcast clouds
462,Faya,SA,18.3851,42.4509,62.71,43,73,0.87,broken clouds
463,Kolvereid,NO,64.8655,11.6047,57.67,74,100,26.42,overcast clouds
464,El Cobre,CU,20.0489,-75.9469,78.24,83,40,2.3,scattered clouds
465,Kavaratti,IN,10.5669,72.642,81.41,79,100,10.87,overcast clouds
466,Tiznit,MA,29.5833,-9.5,62.29,82,91,4.36,overcast clouds
467,Jiangyou,CN,31.7667,104.7167,68.34,89,100,7.4,heavy intensity rain
468,Boende,CD,-0.2167,20.8667,70.07,99,95,2.28,overcast clouds
469,Solenzo,BF,12.1833,-4.0833,81.03,63,32,6.87,scattered clouds
470,Bloomsburg,US,41.0037,-76.4549,75.54,81,99,0.51,overcast clouds
471,Beitbridge,ZW,-22.2167,30.0,63.86,77,34,22.32,scattered clouds
472,Neiafu,TO,-18.65,-173.9833,77.68,94,75,10.36,light rain
473,Maldonado,UY,-34.6667,-54.9167,55.22,68,74,7.63,broken clouds
474,Svetlogorsk,BY,52.6333,29.7333,44.38,75,78,7.31,broken clouds
475,Gravdal,NO,68.1214,13.5031,51.44,81,100,23.51,light rain
476,Anaconda,US,46.1285,-112.9423,76.96,16,44,8.97,scattered clouds
477,Sao Joao Da Barra,BR,-21.6403,-41.0511,75.07,83,5,23.94,clear sky
478,Ankang,CN,32.68,109.0172,71.19,92,83,1.54,broken clouds
479,Ruteng,ID,-8.6136,120.4721,60.8,90,46,2.75,scattered clouds
480,Strangnas,SE,59.3774,17.0312,57.61,81,100,19.84,light rain
481,San Andres,CO,12.5847,-81.7006,80.62,89,75,4.61,broken clouds
482,Broome,US,42.2506,-75.833,67.01,80,90,3.0,overcast clouds
483,Misratah,LY,32.3754,15.0925,77.36,60,0,6.67,clear sky
484,Baisha,CN,26.5222,110.9311,73.92,81,2,3.71,clear sky
485,Tabas,IR,33.5959,56.9244,70.52,21,0,5.59,clear sky
486,Vrangel,RU,42.7297,133.0839,63.43,93,100,7.83,light rain
487,Almeria,ES,37.1667,-2.3333,62.76,61,94,11.21,overcast clouds
488,Lagoa,PT,39.05,-27.9833,70.66,93,29,11.68,scattered clouds
489,Rock Springs,US,41.5875,-109.2029,72.23,16,1,4.0,clear sky
490,Aasiaat,GL,68.7098,-52.8699,25.23,73,100,4.27,overcast clouds
491,Touros,BR,-5.1989,-35.4608,79.7,74,6,14.83,clear sky
492,Cuenca,EC,-2.8833,-78.9833,64.53,68,75,12.66,light rain
493,Teguise,ES,29.0605,-13.564,68.22,78,20,12.66,few clouds
494,Ballitoville,ZA,-29.539,31.2144,58.17,88,90,2.3,light rain
495,Leua,SK,48.2156,18.6071,61.5,55,23,10.67,few clouds
496,Havre-Saint-Pierre,CA,50.2334,-63.5986,50.0,76,75,4.61,broken clouds
497,Roald,NO,62.5833,6.1333,59.92,41,0,9.22,clear sky
498,Almeirim,BR,-1.5233,-52.5817,79.3,79,97,1.83,overcast clouds
499,Rezekne,LV,56.5,27.3167,44.78,82,45,11.41,scattered clouds
500,Rawson,AR,-43.3002,-65.1023,61.14,32,42,6.6,scattered clouds
501,Tommot,RU,58.9564,126.2925,22.46,94,21,2.64,few clouds
502,Latung,PH,5.5,120.8833,83.62,76,100,13.62,overcast clouds
503,Bako,ET,5.7833,36.5667,64.24,85,99,4.12,light rain
504,Oranjestad,AW,12.524,-70.027,85.95,76,20,10.0,few clouds
505,Abu Dhabi,AE,24.4667,54.3667,86.11,62,0,6.91,clear sky
506,Huarmey,PE,-10.0681,-78.1522,66.06,77,72,12.21,broken clouds
507,Adrar,MR,20.5022,-10.0711,93.31,11,8,4.32,clear sky
508,Urshelskiy,RU,55.6783,40.2169,41.5,85,96,1.9,overcast clouds
509,Pemangkat,ID,1.1667,108.9667,78.73,83,100,7.09,overcast clouds
510,Trairi,BR,-3.2778,-39.2689,79.45,81,0,11.48,clear sky
511,Alabaster,US,33.2443,-86.8164,75.88,89,90,5.01,overcast clouds
512,Kristiinankaupunki,FI,62.2743,21.376,54.25,77,100,23.6,overcast clouds
513,Beidao,CN,34.5686,105.8933,50.59,89,100,2.77,moderate rain
514,Hopelchen,MX,19.7667,-89.85,85.28,32,41,4.43,scattered clouds
515,Rocha,UY,-34.4833,-54.3333,49.21,71,68,9.75,broken clouds
516,Opuwo,NA,-18.0607,13.84,66.09,31,0,5.7,clear sky
517,Lerwick,GB,60.1545,-1.1494,51.8,79,100,34.74,overcast clouds
518,Chipiona,ES,36.7366,-6.437,64.62,55,0,9.22,clear sky
519,Praia Da Vitoria,PT,38.7333,-27.0667,71.76,83,20,6.06,few clouds
520,Atar,MR,20.5169,-13.0499,94.44,9,28,8.5,scattered clouds
521,Humaita,BR,-7.5061,-63.0208,87.71,50,98,2.01,moderate rain
522,Maamba,ZM,-17.3667,27.15,77.27,50,94,3.18,overcast clouds
523,Birao,CF,10.2849,22.7882,73.78,84,95,4.9,overcast clouds
524,Siocon,PH,7.7061,122.1353,77.47,93,100,10.42,light rain
525,Aracati,BR,-4.5617,-37.7697,79.9,77,0,17.11,clear sky
526,Fortuna,US,40.5982,-124.1573,70.93,69,20,3.0,few clouds
527,Bakchar,RU,57.0186,82.0711,30.45,99,100,1.77,overcast clouds
528,Luwingu,ZM,-10.2621,29.9271,67.14,74,65,6.26,broken clouds
529,Berbera,SO,10.4396,45.0143,86.97,72,87,6.78,moderate rain
530,Clovis,US,36.8252,-119.7029,93.47,18,1,0.0,haze
531,Kinston,US,35.2627,-77.5816,80.71,57,75,6.91,broken clouds
532,Churapcha,RU,62.0025,132.4325,24.55,93,9,5.64,clear sky
533,Arman,RU,59.7,150.1667,38.01,59,100,15.99,overcast clouds
534,Vangaindrano,MG,-23.35,47.6,68.54,94,25,6.58,scattered clouds
535,Honiara,SB,-9.4333,159.95,83.19,78,19,1.95,few clouds
536,Qarchak,IR,35.4394,51.5689,70.47,35,0,6.69,clear sky
537,Balikpapan,ID,-1.2675,116.8289,74.39,100,75,2.3,thunderstorm with light rain
538,Melhus,NO,63.2855,10.2781,64.06,58,100,13.27,light rain
539,Lisala,CD,2.15,21.5167,71.92,84,73,2.53,broken clouds
540,Envira,BR,-7.3,-70.2167,81.55,68,94,4.74,very heavy rain
541,Kudahuvadhoo,MV,2.6708,72.8944,82.94,75,7,18.19,clear sky
542,Balkhash,KZ,46.844,74.9804,46.9,49,100,7.56,overcast clouds
543,Yurla,RU,59.3259,54.3223,33.12,80,95,4.09,overcast clouds
544,Labuhan,ID,-6.8844,112.2051,77.94,75,100,12.66,overcast clouds
545,Acajutla,SV,13.5928,-89.8275,91.74,70,42,4.29,scattered clouds
546,Sur,OM,22.5667,59.5289,82.53,78,99,15.3,overcast clouds
547,Mackay,AU,-21.15,149.2,80.69,86,15,11.05,few clouds
548,La Ronge,CA,55.1001,-105.2842,64.65,25,40,2.3,scattered clouds
549,Hobyo,SO,5.3505,48.5268,78.28,88,43,18.07,scattered clouds
550,Los Alamos,US,35.8881,-106.307,70.68,39,75,5.01,broken clouds
551,Keti Bandar,PK,24.1447,67.4497,81.88,85,8,16.73,clear sky
552,Caraballeda,VE,10.6112,-66.8522,86.07,66,40,5.75,scattered clouds
553,Rassvet,RU,46.8333,40.75,50.36,54,100,11.18,overcast clouds
554,Changji,CN,44.0167,87.3167,39.99,81,0,4.47,clear sky
555,Tuatapere,NZ,-46.1333,167.6833,48.81,90,100,3.42,overcast clouds
556,Gogrial,SS,8.5332,28.1004,73.85,87,91,3.65,overcast clouds
557,San Cristobal,VE,7.7669,-72.225,78.98,69,49,4.14,scattered clouds
558,Zavyalovo,RU,54.5053,82.4484,35.42,92,100,7.92,overcast clouds
559,Ormara,PK,25.2088,64.6357,81.75,76,7,24.23,clear sky
560,Abalak,RU,58.1286,68.5944,30.49,85,100,8.03,overcast clouds
561,Mairana,BO,-18.1167,-63.9333,63.48,88,83,2.37,broken clouds
562,Pacific Grove,US,36.6177,-121.9166,99.57,60,1,8.01,clear sky
563,Guantanamo,CU,20.1444,-75.2092,81.97,76,41,6.24,scattered clouds
564,Menongue,AO,-14.6585,17.691,64.9,22,12,5.01,few clouds
565,Kenai,US,60.5544,-151.2583,46.02,48,1,6.91,clear sky
566,Provost,CA,52.3501,-110.2683,75.65,23,1,15.59,clear sky
567,Aykhal,RU,66.0,111.5,25.9,86,100,4.32,overcast clouds
568,Thinadhoo,MV,0.5333,72.9333,82.6,77,37,17.72,scattered clouds
569,Capreol,CA,46.706,-80.9225,57.67,96,90,5.01,overcast clouds
570,Luanda,AO,-8.8368,13.2343,73.4,83,20,8.05,few clouds
571,Emirdag,TR,39.0197,31.15,49.28,79,0,2.26,clear sky
572,Jitia,RO,45.5833,26.7167,47.57,74,4,2.19,clear sky
573,Novobessergenevka,RU,47.1847,38.8462,53.01,46,73,16.24,broken clouds
574,Itarema,BR,-2.9248,-39.9167,79.18,83,0,16.26,clear sky
575,Deloraine,AU,-41.5333,146.6667,53.15,100,100,1.74,overcast clouds
576,Sechura,PE,-5.5569,-80.8222,72.3,61,19,20.11,few clouds
577,Phangnga,TH,8.4509,98.5298,85.91,93,57,2.64,broken clouds
578,Brownsville,US,25.9018,-97.4975,86.11,74,20,1.99,few clouds
579,Kolno,PL,53.4115,21.9291,51.91,71,95,11.23,overcast clouds
580,Bosaso,SO,11.2842,49.1816,87.75,61,18,1.39,few clouds
581,Saiha,IN,22.4833,92.9667,68.47,99,99,2.26,overcast clouds
582,Teya,RU,60.3778,92.6267,32.61,98,100,2.55,light snow
583,Constitucion,CL,-35.3333,-72.4167,56.37,67,0,18.39,clear sky
584,Sigli,ID,5.3848,95.9609,77.45,85,80,4.12,broken clouds
585,Qasigiannguit,GL,68.8193,-51.1922,28.65,74,99,2.19,overcast clouds
586,Oktyabrskiy,RU,54.4815,53.471,41.99,69,93,4.68,overcast clouds
587,Esperance,AU,-33.8667,121.9,48.83,71,45,11.12,scattered clouds
588,Wagar,SD,16.1525,36.2032,90.97,37,28,5.97,scattered clouds
589,Baiao,BR,-2.7906,-49.6717,79.56,67,100,0.74,overcast clouds
590,Lyangasovo,RU,58.5176,49.4472,42.31,70,99,3.8,overcast clouds
591,Xuddur,SO,4.1213,43.8894,72.37,74,27,11.41,scattered clouds
592,Alta,NO,69.9689,23.2717,51.06,67,20,1.99,few clouds
593,Svetlyy,RU,54.675,20.1347,51.85,74,73,15.23,broken clouds
594,Matara,LK,5.9485,80.5353,77.14,89,88,7.38,light rain
595,Natal,BR,-5.795,-35.2094,79.45,78,0,8.05,clear sky
596,Prieska,ZA,-29.6641,22.7474,50.02,21,0,4.97,clear sky
597,Piacabucu,BR,-10.4056,-36.4344,76.59,85,7,11.3,clear sky
598,Carballo,ES,43.213,-8.691,58.87,89,86,4.54,overcast clouds
599,Santa Cruz De La Palma,ES,28.6835,-17.7642,71.74,78,0,13.8,clear sky
600,Kosa,RU,59.9445,54.9977,28.63,84,20,3.36,few clouds
601,Anandpur Sahib,IN,31.25,76.5,74.55,77,0,4.05,clear sky
602,Biharamulo,TZ,-2.6319,31.3089,63.12,86,73,2.51,broken clouds
603,Tevaitoa,PF,-16.7833,-151.5,78.58,72,22,9.1,few clouds
604,Ketchikan,US,55.3422,-131.6461,48.18,72,100,10.76,light rain
605,Uchaly,RU,54.2996,59.4521,26.94,89,82,4.76,broken clouds
606,Usinsk,RU,65.9939,57.5281,30.7,80,36,9.73,scattered clouds
607,Ponnani,IN,10.767,75.9252,79.92,91,100,3.51,overcast clouds
608,Rayadrug,IN,14.7,76.8667,78.93,70,15,5.82,few clouds
609,Norman Wells,CA,65.282,-126.8329,35.64,93,90,18.41,light rain and snow
610,Yeppoon,AU,-23.1333,150.7333,76.78,75,1,6.82,clear sky
611,Waingapu,ID,-9.6567,120.2641,74.68,81,64,5.06,broken clouds
612,Mumford,GH,5.2618,-0.759,78.17,90,63,10.29,broken clouds
613,Coahuayana,MX,18.7333,-103.6833,87.28,63,91,5.82,overcast clouds
614,Sohag,EG,26.557,31.6948,77.29,41,0,13.29,clear sky
615,Dores Do Indaia,BR,-19.4633,-45.6017,82.56,37,44,3.69,scattered clouds
616,Kupang,ID,-10.1667,123.5833,76.44,82,46,4.29,scattered clouds
617,Irece,BR,-11.3042,-41.8558,80.71,34,4,14.54,clear sky
618,Baghdad,IQ,33.3406,44.4009,76.91,36,0,8.05,clear sky
619,Takoradi,GH,4.8845,-1.7554,77.52,91,100,7.94,overcast clouds
620,Hambantota,LK,6.1241,81.1185,78.84,85,94,12.68,overcast clouds
621,Malatya,TR,38.5,38.0,55.45,44,0,20.71,clear sky
622,Zhangjiakou,CN,40.81,114.8794,51.08,45,100,9.57,overcast clouds
623,Alpena,US,45.0617,-83.4327,66.34,97,90,1.01,fog
624,Hami,CN,42.8,93.45,45.88,34,0,2.59,clear sky
625,Kalabo,ZM,-14.97,22.6814,72.27,57,75,5.59,broken clouds
626,Moussoro,TD,13.6408,16.4901,90.64,28,25,6.31,scattered clouds
627,San Francisco,US,37.7749,-122.4194,97.3,37,20,3.44,smoke
628,Chino Valley,US,34.7575,-112.4538,81.5,28,1,3.0,clear sky
629,Devils Lake,US,48.1128,-98.8651,75.18,41,1,10.0,clear sky
630,Rudsar,IR,37.1376,50.288,63.36,90,38,2.62,scattered clouds
631,Cam Ranh,VN,11.9214,109.1591,76.96,83,40,4.61,scattered clouds
632,Rogovatoye,RU,51.23,38.3818,48.9,67,87,7.0,overcast clouds
633,Chikmagalur,IN,13.3167,75.7833,68.14,89,84,1.28,heavy intensity rain
634,Balabac,PH,7.9868,117.0645,79.9,81,100,7.85,overcast clouds
635,Remontnoye,RU,46.5614,43.6501,43.21,50,99,13.67,light rain
636,Marienburg,PL,54.0359,19.0266,57.88,70,75,13.04,broken clouds
637,Sabaudia,IT,41.3003,13.0282,70.95,88,1,7.9,clear sky
638,Yar-Sale,RU,66.8333,70.8333,31.39,75,100,6.89,overcast clouds
639,Sioux Lookout,CA,50.1001,-91.917,62.98,67,75,3.44,broken clouds
640,Riyadh,SA,24.6877,46.7219,80.74,16,16,7.43,few clouds
641,Betare Oya,CM,5.6,14.0833,67.23,95,99,3.09,overcast clouds
642,Marfino,RU,55.7028,37.3822,37.65,93,99,4.47,mist
643,Jumla,NP,29.2747,82.1838,52.97,89,44,3.02,scattered clouds
644,Lisakovsk,KZ,52.5369,62.4936,32.52,82,24,10.56,few clouds
645,Nambucca Heads,AU,-30.65,153.0,77.16,43,58,3.65,broken clouds
646,Coxim,BR,-18.5067,-54.76,91.36,35,77,6.85,broken clouds
647,Farafangana,MG,-22.8167,47.8333,69.69,91,20,8.86,few clouds
648,Rantepao,ID,-2.9701,119.8978,66.54,98,100,0.85,overcast clouds
649,Iralaya,HN,15.0,-83.2333,86.09,80,19,6.93,few clouds
650,Bubaque,GW,11.2833,-15.8333,82.27,72,88,2.04,overcast clouds
651,Resistencia,AR,-27.4606,-58.9839,64.45,48,0,11.5,clear sky
652,Ibra,OM,22.6906,58.5334,76.96,80,100,12.8,overcast clouds
653,Lima,PE,-12.0432,-77.0282,61.14,75,90,1.01,overcast clouds
654,Bonthe,SL,7.5264,-12.505,78.67,86,100,3.96,overcast clouds
655,Dicabisagan,PH,17.0818,122.4157,78.06,89,96,3.74,overcast clouds
656,Klichka,RU,50.4457,117.996,32.14,63,94,2.53,overcast clouds
657,Beira,MZ,-19.8436,34.8389,78.89,89,75,3.44,broken clouds
658,Kirakira,SB,-10.4544,161.9205,82.53,78,43,3.56,scattered clouds
659,Ngunguru,NZ,-35.6167,174.5,63.16,96,100,14.83,moderate rain
660,Ballina,AU,-28.8667,153.5667,76.78,46,27,7.7,scattered clouds
661,Thabazimbi,ZA,-24.5917,27.4116,66.09,14,0,1.92,clear sky
662,Nemuro,JP,43.3236,145.575,62.22,84,96,30.76,overcast clouds
663,Parabel,RU,58.6978,81.4825,32.59,96,100,6.42,overcast clouds
664,Pangody,RU,65.85,74.4859,31.57,82,100,6.44,overcast clouds
665,Djenne,ML,13.9061,-4.5533,92.53,27,90,2.8,overcast clouds
666,Maues,BR,-3.3836,-57.7186,81.57,69,95,2.53,moderate rain
667,Milkovo,RU,54.7167,158.6167,44.58,86,100,12.73,overcast clouds
668,Palmer,US,42.1584,-72.3287,69.31,81,90,0.0,light intensity drizzle
669,Terrasini,IT,38.146,13.0844,71.22,64,0,3.44,clear sky
670,Soria,ES,41.6667,-2.6667,42.01,85,16,1.83,few clouds
671,Hualmay,PE,-11.0964,-77.6139,64.98,76,50,9.71,scattered clouds
672,Ust-Tsilma,RU,65.441,52.1498,39.22,92,100,4.88,overcast clouds
673,Poum,NC,-20.2333,164.0167,75.29,84,0,8.88,clear sky
674,Port-Gentil,GA,-0.7193,8.7815,78.76,83,40,8.05,scattered clouds
675,Finschhafen,PG,-6.6024,147.8681,81.63,76,68,2.98,broken clouds
676,Masakin,TN,35.7292,10.5808,76.46,78,20,12.66,few clouds
677,Kontagora,NG,10.3999,5.4695,74.98,81,71,1.48,broken clouds
678,Guarapari,BR,-20.6667,-40.4975,78.69,80,6,19.48,clear sky
679,Zhicheng,CN,30.2956,111.5047,76.84,66,0,3.22,light rain
680,Vargashi,RU,55.3556,65.8467,27.28,93,89,9.35,overcast clouds
681,Naples,IT,40.8333,14.25,71.15,80,0,1.99,clear sky
682,Kropotkin,RU,45.4375,40.5756,54.55,51,100,17.74,moderate rain
683,Nishihara,JP,26.1842,127.7558,81.68,61,40,11.5,scattered clouds
684,Polunochnoye,RU,60.8697,60.4153,26.26,90,60,3.36,broken clouds
685,Cap Malheureux,MU,-19.9842,57.6142,72.46,75,21,5.99,light rain
686,La Primavera,CO,5.4906,-70.4092,82.89,73,87,6.17,overcast clouds
687,Namtsy,RU,62.7161,129.6658,24.91,90,9,5.95,clear sky
688,Marsaxlokk,MT,35.8419,14.5431,71.08,78,0,3.44,clear sky
689,Urgut,UZ,39.4022,67.2431,46.02,43,2,1.21,clear sky
690,Melbu,NO,68.5044,14.8297,50.9,80,100,14.92,moderate rain
691,Nogliki,RU,51.8333,143.1667,41.5,79,93,13.22,overcast clouds
692,Cozumel,MX,20.5083,-86.9458,86.11,73,40,3.0,scattered clouds
693,Rongcheng,CN,30.634,117.8517,73.29,81,0,4.09,clear sky
694,Bairiki,KI,1.3292,172.9752,86.0,66,20,11.5,few clouds
695,Tutoia,BR,-2.7619,-42.2744,80.2,81,43,16.28,scattered clouds
696,Roman,RO,46.9167,26.9167,50.81,68,31,4.38,scattered clouds
697,Marsta,SE,59.6216,17.8548,58.21,82,0,20.71,clear sky
698,Mokhsogollokh,RU,61.4681,128.9203,24.73,86,14,4.68,few clouds
699,Jiayuguan,CN,39.8167,98.3,42.46,47,100,8.57,overcast clouds
700,Kampot,KH,10.6167,104.1833,77.05,86,68,4.0,light rain
701,Berdigestyakh,RU,62.0989,126.6992,25.25,83,16,4.83,few clouds
702,Batemans Bay,AU,-35.7167,150.1833,69.19,75,44,3.22,scattered clouds
703,Pemba,MZ,-12.974,40.5178,76.75,75,47,15.26,scattered clouds
704,Moree,AU,-29.4667,149.85,66.22,55,2,17.27,clear sky
